{"settings":{"latitude":39.30902,"longitude":-76.62016,"zoom":15,"height":800},"locations":[{"name":"Decker","alias":["Decker","Decker Gallery"],"value":"decker","building":"Fox Building","street":"1303 W. Mt. Royal Ave.","zip":21217,"geoData":{"bounds":{"northeast":{"lat":39.3085443,"lng":-76.6210519},"southwest":{"lat":39.3077791,"lng":-76.6218079}},"location":{"lat":39.3078104,"lng":-76.62106179999999},"location_type":"RANGE_INTERPOLATED","viewport":{"northeast":{"lat":39.3095106802915,"lng":-76.6200809197085},"southwest":{"lat":39.3068127197085,"lng":-76.6227788802915}}}},{"name":"Fox 3","alias":["Fox 3"],"value":"fox-3","building":"Fox Building","street":"1303 W. Mt. Royal Ave.","zip":21217,"geoData":{"bounds":{"northeast":{"lat":39.3085443,"lng":-76.6210519},"southwest":{"lat":39.3077791,"lng":-76.6218079}},"location":{"lat":39.3078104,"lng":-76.62106179999999},"location_type":"RANGE_INTERPOLATED","viewport":{"northeast":{"lat":39.3095106802915,"lng":-76.6200809197085},"southwest":{"lat":39.3068127197085,"lng":-76.6227788802915}}}},{"name":"Leidy","alias":["Leidy","Leidy Gallery"],"value":"leidy","building":"Fred Lazarus IV Center","street":"131 W. North Ave.","zip":21201,"geoData":{"location":{"lat":39.310547,"lng":-76.61894099999999},"location_type":"ROOFTOP","viewport":{"northeast":{"lat":39.3118959802915,"lng":-76.61759201970848},"southwest":{"lat":39.3091980197085,"lng":-76.6202899802915}}}},{"name":"Meyerhoff","alias":["Meyerhoff","Meyerhoff Gallery"],"value":"meyerhoff","building":"Fox Building","street":"1303 W. Mt. Royal Ave.","zip":21217,"geoData":{"bounds":{"northeast":{"lat":39.3085443,"lng":-76.6210519},"southwest":{"lat":39.3077791,"lng":-76.6218079}},"location":{"lat":39.3078104,"lng":-76.62106179999999},"location_type":"RANGE_INTERPOLATED","viewport":{"northeast":{"lat":39.3095106802915,"lng":-76.6200809197085},"southwest":{"lat":39.3068127197085,"lng":-76.6227788802915}}}},{"name":"North Avenue Market","alias":["D Center","North Avenue Market"],"value":"north-avenue-market","street":"18 W. North Ave.","zip":21218,"geoData":{"bounds":{"northeast":{"lat":39.3111782,"lng":-76.61656099999999},"southwest":{"lat":39.3111414,"lng":-76.6174053}},"location":{"lat":39.3111633,"lng":-76.6172297},"location_type":"RANGE_INTERPOLATED","viewport":{"northeast":{"lat":39.31250878029149,"lng":-76.61563416970849},"southwest":{"lat":39.3098108197085,"lng":-76.61833213029149}}}},{"name":"Pinkard","alias":["Pinkard","Pinkard Gallery"],"value":"pinkard","building":"Bunting Center","street":"1305 W. Mt. Royal Ave.","zip":21217,"geoData":{"bounds":{"northeast":{"lat":39.3085443,"lng":-76.6210519},"southwest":{"lat":39.3077791,"lng":-76.6218079}},"location":{"lat":39.3078245,"lng":-76.621077},"location_type":"RANGE_INTERPOLATED","viewport":{"northeast":{"lat":39.3095106802915,"lng":-76.6200809197085},"southwest":{"lat":39.3068127197085,"lng":-76.6227788802915}}}},{"name":"Sheila & Richard Riggs Gallery","alias":["Sheila & Richard Riggs Gallery","Riggs","Riggs Gallery","Riggs Gallery (Hallway)","Riggs/Leidy Gallery"],"value":"riggs","building":"Fred Lazarus IV Center","street":"131 W. North Ave.","zip":21201,"geoData":{"location":{"lat":39.310547,"lng":-76.61894099999999},"location_type":"ROOFTOP","viewport":{"northeast":{"lat":39.3118959802915,"lng":-76.61759201970848},"southwest":{"lat":39.3091980197085,"lng":-76.6202899802915}}}},{"name":"Walters Art Museum","alias":["Walters","Walters Art Gallery","The Walters"],"value":"walters-art-museum","street":"600 N Charles St","zip":21201,"geoData":{"location":{"lat":39.2965928,"lng":-76.61609949999999},"location_type":"ROOFTOP","viewport":{"northeast":{"lat":39.2979417802915,"lng":-76.61475051970848},"southwest":{"lat":39.2952438197085,"lng":-76.6174484802915}}}},{"name":"Top of the World Observation Level","alias":["World Trade Center Baltimore","World Trade Baltimore"],"value":"world-trade-center-baltimore","building":"World Trade Center Baltimore","street":"401 East Pratt Street","zip":21202,"geoData":{"location":{"lat":39.2860269,"lng":-76.6096483},"location_type":"ROOFTOP","viewport":{"northeast":{"lat":39.2873758802915,"lng":-76.60829931970851},"southwest":{"lat":39.2846779197085,"lng":-76.61099728029151}}}},{"name":"The Rawlings Conservatory & Botanic Gardens","alias":["Rawlings Conservatory","Conservatory","Rawlings"],"value":"rawlings-conservatory","street":"3100 Swann Drive","zip":21217,"geoData":{"location":{"lat":39.3184614,"lng":-76.64472909999999},"location_type":"ROOFTOP","viewport":{"northeast":{"lat":39.31981038029149,"lng":-76.6433801197085},"southwest":{"lat":39.3171124197085,"lng":-76.6460780802915}}}},{"name":"Project PLASE","alias":["PLASE","Project Plase"],"value":"project-plase","street":"3601 Old Frederick Avenue","zip":21229,"geoData":{"bounds":{"northeast":{"lat":39.2832849,"lng":-76.6768465},"southwest":{"lat":39.2832715,"lng":-76.6768527}},"location":{"lat":39.2832715,"lng":-76.6768527},"location_type":"RANGE_INTERPOLATED","viewport":{"northeast":{"lat":39.2846271802915,"lng":-76.67550061970849},"southwest":{"lat":39.2819292197085,"lng":-76.67819858029151}}}},{"name":"Gallery Q","alias":["Gallery Q","Eisenhower Library"],"value":"gallery-q","building":"Eisenhower Library, Johns Hopkins University Homewood Campus","street":"3200 North Charles Street","zip":21218,"geoData":{"bounds":{"northeast":{"lat":39.3270748,"lng":-76.6177642},"southwest":{"lat":39.3268606,"lng":-76.6177773}},"location":{"lat":39.3268706,"lng":-76.6177833},"location_type":"RANGE_INTERPOLATED","viewport":{"northeast":{"lat":39.3283166802915,"lng":-76.6164217697085},"southwest":{"lat":39.3256187197085,"lng":-76.6191197302915}}}},{"name":"YNot Lot","alias":["YNot"],"value":"ynot-lot","street":"4 West North Avenue","zip":21201,"geoData":{"location":{"lat":39.31144,"lng":-76.616843},"location_type":"ROOFTOP","viewport":{"northeast":{"lat":39.31278898029149,"lng":-76.61549401970849},"southwest":{"lat":39.3100910197085,"lng":-76.61819198029151}}}},{"name":"Sandbox","alias":["Sandbox"],"value":"sandbox","street":"107 South Cross Street","zip":21620,"geoData":{"location":{"lat":39.208574,"lng":-76.067112},"location_type":"ROOFTOP"}},{"name":"Bennu Gallery","alias":["Bennus"],"value":"bennu-gallery","street":"2334 Guilford Ave","zip":21218,"geoData":{"location":{"lat":39.316287,"lng":-76.61314899999999},"location_type":"ROOFTOP","viewport":{"northeast":{"lat":39.3176359802915,"lng":-76.61180001970848},"southwest":{"lat":39.3149380197085,"lng":-76.61449798029149}}}},{"name":"Jubilee Arts Center","alias":["Jubilee Arts"],"value":"jubilee-arts-center","street":"1947 Pennsylvania Ave","zip":21217,"geoData":{"location":{"lat":39.30595,"lng":-76.63722},"location_type":"ROOFTOP","viewport":{"northeast":{"lat":39.30729898029149,"lng":-76.6358710197085},"southwest":{"lat":39.30460101970849,"lng":-76.63856898029151}}}},{"name":"New Door Creative Gallery","alias":["New Door Creative","New Door Gallery"],"value":"new-door-creative-gallery","street":"1601 Saint Paul Street","zip":21201,"geoData":{"location":{"lat":39.30800199999999,"lng":-76.614407},"location_type":"ROOFTOP","viewport":{"northeast":{"lat":39.3093509802915,"lng":-76.61305801970849},"southwest":{"lat":39.3066530197085,"lng":-76.61575598029151}}}},{"name":"War Memorial Commission, City of Baltimore","alias":["War Memorial Baltimore","War Memorial"],"value":"war-memorial-commission","street":"101 North Gay Street","zip":21202,"geoData":{"location":{"lat":39.290973,"lng":-76.608407},"location_type":"ROOFTOP","viewport":{"northeast":{"lat":39.2923219802915,"lng":-76.6070580197085},"southwest":{"lat":39.2896240197085,"lng":-76.60975598029151}}}},{"name":"The Baltimore Museum of Industry","alias":["Museum of Industry"],"value":"baltimore-museum-of-industry","street":"1415 Key Highway","zip":21230,"geoData":{"location":{"lat":39.2739568,"lng":-76.6016324},"location_type":"ROOFTOP","viewport":{"northeast":{"lat":39.2753057802915,"lng":-76.60028341970849},"southwest":{"lat":39.2726078197085,"lng":-76.60298138029151}}}},{"name":"Baltimore Clayworks","alias":["Clayworks"],"value":"baltimore-clayworks","street":"5707 Smith Avenue","zip":21209,"geoData":{"location":{"lat":39.3676219,"lng":-76.6531947},"location_type":"ROOFTOP","viewport":{"northeast":{"lat":39.36897088029149,"lng":-76.65184571970849},"southwest":{"lat":39.36627291970849,"lng":-76.6545436802915}}}},{"name":"Kagro","alias":["Kagro","Kagro Building"],"value":"kagro","street":"101 W. North Ave.","zip":21201,"geoData":{"location":{"lat":39.310582,"lng":-76.618085},"location_type":"ROOFTOP"}}]}